{
"type": "FeatureCollection",
"name": "restaurants",
"crs": { "type": "name", "properties": { "name": "urn:ogc:def:crs:OGC:1.3:CRS84" } },
"features": [
{ "type": "Feature", "properties": { "name": "Central Diner", "freq": 1, "amenity": "restaurant", "stroke": "orange", "marker-color": "orange", "fill": "orange" }, "geometry": { "type": "Point", "coordinates": [ 39.120479624117635, 22.306651654902346 ] } },
{ "type": "Feature", "properties": { "name": "Tawabil", "freq": 1, "amenity": "restaurant", "stroke": "orange", "marker-color": "orange", "fill": "orange" }, "geometry": { "type": "Point", "coordinates": [ 39.1011166, 22.3114184 ] } },
{ "type": "Feature", "properties": { "name": "Great Wall Bistro", "freq": 1, "amenity": "restaurant", "stroke": "orange", "marker-color": "orange", "fill": "orange" }, "geometry": { "type": "Point", "coordinates": [ 39.1013392, 22.3111443 ] } },
{ "type": "Feature", "properties": { "name": "دجاج كنتاكي", "freq": 1, "amenity": "fast_food", "stroke": "orange", "marker-color": "orange", "fill": "orange" }, "geometry": { "type": "Point", "coordinates": [ 39.1014153, 22.3110509 ] } },
{ "type": "Feature", "properties": { "name": "Campus Diner", "freq": 1, "amenity": "restaurant", "stroke": "orange", "marker-color": "orange", "fill": "orange" }, "geometry": { "type": "Point", "coordinates": [ 39.1039237, 22.3087977 ] } },
{ "type": "Feature", "properties": { "name": "Burger King", "freq": 1, "amenity": "fast_food", "stroke": "orange", "marker-color": "orange", "fill": "orange" }, "geometry": { "type": "Point", "coordinates": [ 39.1011914, 22.3113344 ] } },
{ "type": "Feature", "properties": { "name": "Cuisine Halwani", "freq": 1, "amenity": "restaurant", "stroke": "orange", "marker-color": "orange", "fill": "orange" }, "geometry": { "type": "Point", "coordinates": [ 39.1019708, 22.3112895 ] } },
{ "type": "Feature", "properties": { "name": "Subway", "freq": 1, "amenity": "fast_food", "stroke": "orange", "marker-color": "orange", "fill": "orange" }, "geometry": { "type": "Point", "coordinates": [ 39.1026794, 22.3113603 ] } },
{ "type": "Feature", "properties": { "name": "Harbour Sports Center Restaurant", "freq": 1, "amenity": "restaurant", "stroke": "orange", "marker-color": "orange", "fill": "orange" }, "geometry": { "type": "Point", "coordinates": [ 39.0990157, 22.3150104 ] } },
{ "type": "Feature", "properties": { "name": "Al-Marsa Restaurant", "freq": 1, "amenity": "restaurant", "stroke": "orange", "marker-color": "orange", "fill": "orange" }, "geometry": { "type": "Point", "coordinates": [ 39.0977722, 22.3052886 ] } },
{ "type": "Feature", "properties": { "name": "10th Hole Restaurant", "freq": 1, "amenity": "restaurant", "stroke": "orange", "marker-color": "orange", "fill": "orange" }, "geometry": { "type": "Point", "coordinates": [ 39.1169075, 22.3242106 ] } },
{ "type": "Feature", "properties": { "name": "Smoked Ash", "freq": 1, "amenity": "restaurant", "stroke": "orange", "marker-color": "orange", "fill": "orange" }, "geometry": { "type": "Point", "coordinates": [ 39.099649, 22.3094077 ] } },
{ "type": "Feature", "properties": { "name": "Pure", "freq": 1, "amenity": "restaurant", "stroke": "orange", "marker-color": "orange", "fill": "orange" }, "geometry": { "type": "Point", "coordinates": [ 39.0913449, 22.3165637 ] } },
{ "type": "Feature", "properties": { "name": "Racquet club", "freq": 1, "amenity": "restaurant", "stroke": "orange", "marker-color": "orange", "fill": "orange" }, "geometry": { "type": "Point", "coordinates": [ 39.1050581, 22.326207 ] } },
{ "type": "Feature", "properties": { "name": "Ya Hala", "freq": 1, "amenity": "fast_food", "stroke": "orange", "marker-color": "orange", "fill": "orange" }, "geometry": { "type": "Point", "coordinates": [ 39.1012649, 22.3112413 ] } },
{ "type": "Feature", "properties": { "name": "Verra Pizza", "freq": 1, "amenity": "restaurant", "stroke": "orange", "marker-color": "orange", "fill": "orange" }, "geometry": { "type": "Point", "coordinates": [ 39.0997579, 22.3093949 ] } },
{ "type": "Feature", "properties": { "name": "Smiley Fruits", "freq": 1, "amenity": "fast_food", "stroke": "orange", "marker-color": "orange", "fill": "orange" }, "geometry": { "type": "Point", "coordinates": [ 39.1013184, 22.3116117 ] } },
{ "type": "Feature", "properties": { "name": null, "freq": 1, "amenity": "fast_food", "stroke": "orange", "marker-color": "orange", "fill": "orange" }, "geometry": { "type": "Point", "coordinates": [ 39.1035238, 22.3098407 ] } },
{ "type": "Feature", "properties": { "name": "كرسبي كريم", "freq": 1, "amenity": "fast_food", "stroke": "orange", "marker-color": "orange", "fill": "orange" }, "geometry": { "type": "Point", "coordinates": [ 39.1001778, 22.3100515 ] } },
{ "type": "Feature", "properties": { "name": "Domino's", "freq": 1, "amenity": "fast_food", "stroke": "orange", "marker-color": "orange", "fill": "orange" }, "geometry": { "type": "Point", "coordinates": [ 39.1006936, 22.3091781 ] } },
{ "type": "Feature", "properties": { "name": "House of Donuts", "freq": 1, "amenity": "cafe", "stroke": "orange", "marker-color": "orange", "fill": "orange" }, "geometry": { "type": "Point", "coordinates": [ 39.1056561, 22.3072035 ] } },
{ "type": "Feature", "properties": { "name": "The Coffee Bean & Tea Leaf", "freq": 1, "amenity": "cafe", "stroke": "orange", "marker-color": "orange", "fill": "orange" }, "geometry": { "type": "Point", "coordinates": [ 39.1047889, 22.3100805 ] } },
{ "type": "Feature", "properties": { "name": "The Coffee Bean & Tea Leaf", "freq": 1, "amenity": "cafe", "stroke": "orange", "marker-color": "orange", "fill": "orange" }, "geometry": { "type": "Point", "coordinates": [ 39.1018834, 22.3113609 ] } },
{ "type": "Feature", "properties": { "name": "The Sandwich Gallery", "freq": 1, "amenity": "cafe", "stroke": "orange", "marker-color": "orange", "fill": "orange" }, "geometry": { "type": "Point", "coordinates": [ 39.1054009, 22.3075972 ] } },
{ "type": "Feature", "properties": { "name": "Coffee Republic", "freq": 1, "amenity": "cafe", "stroke": "orange", "marker-color": "orange", "fill": "orange" }, "geometry": { "type": "Point", "coordinates": [ 39.1025522, 22.3107886 ] } },
{ "type": "Feature", "properties": { "name": "Saadeddin", "freq": 1, "amenity": "cafe", "stroke": "orange", "marker-color": "orange", "fill": "orange" }, "geometry": { "type": "Point", "coordinates": [ 39.1003982, 22.3097375 ] } },
{ "type": "Feature", "properties": { "name": "Joffrey's Coffee & Tea Company", "freq": 1, "amenity": "cafe", "stroke": "orange", "marker-color": "orange", "fill": "orange" }, "geometry": { "type": "Point", "coordinates": [ 39.104958, 22.3082139 ] } },
{ "type": "Feature", "properties": { "name": "IRC Deli", "freq": 1, "amenity": "cafe", "stroke": "orange", "marker-color": "orange", "fill": "orange" }, "geometry": { "type": "Point", "coordinates": [ 39.0917602, 22.3167503 ] } }
]
}
