{
"type": "FeatureCollection",
"name": "restaurants",
"crs": { "type": "name", "properties": { "name": "urn:ogc:def:crs:OGC:1.3:CRS84" } },
"features": [
{ "type": "Feature", "properties": { "name": "Albaik", "freq": 0.0003, "amenity": "cafe", "stroke": "orange", "marker-color": "orange", "fill": "orange" }, "geometry": { "type": "Point", "coordinates": [ 39.104765315559142, 22.316130545931472 ] } },
{ "type": "Feature", "properties": { "name": "Central Diner", "freq": 0.00015, "amenity": "restaurant", "stroke": "orange", "marker-color": "orange", "fill": "orange" }, "geometry": { "type": "Point", "coordinates": [ 39.120479624117635, 22.306651654902346 ] } },
{ "type": "Feature", "properties": { "name": "Tawabil", "freq": 0.00015, "amenity": "restaurant", "stroke": "orange", "marker-color": "orange", "fill": "orange" }, "geometry": { "type": "Point", "coordinates": [ 39.1011166, 22.3114184 ] } },
{ "type": "Feature", "properties": { "name": "Great Wall Bistro", "freq": 0.00015, "amenity": "restaurant", "stroke": "orange", "marker-color": "orange", "fill": "orange" }, "geometry": { "type": "Point", "coordinates": [ 39.1004165, 22.3095512 ] } },
{ "type": "Feature", "properties": { "name": "دجاج كنتاكي", "freq": 0.0003, "amenity": "fast_food", "stroke": "orange", "marker-color": "orange", "fill": "orange" }, "geometry": { "type": "Point", "coordinates": [ 39.1014153, 22.3110509 ] } },
{ "type": "Feature", "properties": { "name": "Campus Diner", "freq": 0.00015, "amenity": "restaurant", "stroke": "orange", "marker-color": "orange", "fill": "orange" }, "geometry": { "type": "Point", "coordinates": [ 39.1039237, 22.3087977 ] } },
{ "type": "Feature", "properties": { "name": "Burger King", "freq": 0.0003, "amenity": "fast_food", "stroke": "orange", "marker-color": "orange", "fill": "orange" }, "geometry": { "type": "Point", "coordinates": [ 39.1011914, 22.3113344 ] } },
{ "type": "Feature", "properties": { "name": "Cuisine Halwani", "freq": 0.00015, "amenity": "restaurant", "stroke": "orange", "marker-color": "orange", "fill": "orange" }, "geometry": { "type": "Point", "coordinates": [ 39.1019708, 22.3112895 ] } },
{ "type": "Feature", "properties": { "name": "Subway", "freq": 0.0003, "amenity": "fast_food", "stroke": "orange", "marker-color": "orange", "fill": "orange" }, "geometry": { "type": "Point", "coordinates": [ 39.1026794, 22.3113603 ] } },
{ "type": "Feature", "properties": { "name": "Harbour Sports Center Restaurant", "freq": 0.00015, "amenity": "restaurant", "stroke": "orange", "marker-color": "orange", "fill": "orange" }, "geometry": { "type": "Point", "coordinates": [ 39.0990157, 22.3150104 ] } },
{ "type": "Feature", "properties": { "name": "Al-Marsa Restaurant", "freq": 0.00015, "amenity": "restaurant", "stroke": "orange", "marker-color": "orange", "fill": "orange" }, "geometry": { "type": "Point", "coordinates": [ 39.0977722, 22.3052886 ] } },
{ "type": "Feature", "properties": { "name": "10th Hole Restaurant", "freq": 0.00015, "amenity": "restaurant", "stroke": "orange", "marker-color": "orange", "fill": "orange" }, "geometry": { "type": "Point", "coordinates": [ 39.1169075, 22.3242106 ] } },
{ "type": "Feature", "properties": { "name": "Smoked Ash", "freq": 0.00015, "amenity": "restaurant", "stroke": "orange", "marker-color": "orange", "fill": "orange" }, "geometry": { "type": "Point", "coordinates": [ 39.099649, 22.3094077 ] } },
{ "type": "Feature", "properties": { "name": "Pure", "freq": 0.00015, "amenity": "restaurant", "stroke": "orange", "marker-color": "orange", "fill": "orange" }, "geometry": { "type": "Point", "coordinates": [ 39.0913449, 22.3165637 ] } },
{ "type": "Feature", "properties": { "name": "Racquet club", "freq": 0.00015, "amenity": "restaurant", "stroke": "orange", "marker-color": "orange", "fill": "orange" }, "geometry": { "type": "Point", "coordinates": [ 39.1050581, 22.326207 ] } },
{ "type": "Feature", "properties": { "name": "Ya Hala", "freq": 0.0003, "amenity": "fast_food", "stroke": "orange", "marker-color": "orange", "fill": "orange" }, "geometry": { "type": "Point", "coordinates": [ 39.1012649, 22.3112413 ] } },
{ "type": "Feature", "properties": { "name": "Verra Pizza", "freq": 0.00015, "amenity": "restaurant", "stroke": "orange", "marker-color": "orange", "fill": "orange" }, "geometry": { "type": "Point", "coordinates": [ 39.0997579, 22.3093949 ] } },
{ "type": "Feature", "properties": { "name": "The Great American Bagel and Bakery", "freq": 0.00015, "amenity": "restaurant", "stroke": "orange", "marker-color": "orange", "fill": "orange" }, "geometry": { "type": "Point", "coordinates": [ 39.1037513, 22.3096608 ] } },
{ "type": "Feature", "properties": { "name": "Domino's", "freq": 0.0003, "amenity": "fast_food", "stroke": "orange", "marker-color": "orange", "fill": "orange" }, "geometry": { "type": "Point", "coordinates": [ 39.1006936, 22.3091781 ] } },
{ "type": "Feature", "properties": { "name": "Beytoti", "freq": 0.00015, "amenity": "restaurant", "stroke": "orange", "marker-color": "orange", "fill": "orange" }, "geometry": { "type": "Point", "coordinates": [ 39.1013237, 22.3112054 ] } },
{ "type": "Feature", "properties": { "name": "Maki House", "freq": 0.00015, "amenity": "restaurant", "stroke": "orange", "marker-color": "orange", "fill": "orange" }, "geometry": { "type": "Point", "coordinates": [ 39.1013585, 22.3111632 ] } },
{ "type": "Feature", "properties": { "name": "Ed's Tacos", "freq": 0.00015, "amenity": "restaurant", "stroke": "orange", "marker-color": "orange", "fill": "orange" }, "geometry": { "type": "Point", "coordinates": [ 39.1005059, 22.3091656 ] } },
{ "type": "Feature", "properties": { "name": "The Coffee Bean & Tea Leaf", "freq": 2.9999999999999997e-05, "amenity": "cafe", "stroke": "orange", "marker-color": "orange", "fill": "orange" }, "geometry": { "type": "Point", "coordinates": [ 39.1047889, 22.3100805 ] } },
{ "type": "Feature", "properties": { "name": "ZED", "freq": 2.9999999999999997e-05, "amenity": "cafe", "stroke": "orange", "marker-color": "orange", "fill": "orange" }, "geometry": { "type": "Point", "coordinates": [ 39.1054009, 22.3075972 ] } },
{ "type": "Feature", "properties": { "name": "Dia's Cafe", "freq": 2.9999999999999997e-05, "amenity": "cafe", "stroke": "orange", "marker-color": "orange", "fill": "orange" }, "geometry": { "type": "Point", "coordinates": [ 39.1025522, 22.3107886 ] } },
{ "type": "Feature", "properties": { "name": "Saadeddin", "freq": 2.9999999999999997e-05, "amenity": "cafe", "stroke": "orange", "marker-color": "orange", "fill": "orange" }, "geometry": { "type": "Point", "coordinates": [ 39.1003982, 22.3097375 ] } },
{ "type": "Feature", "properties": { "name": "Joffrey's Coffee & Tea Company", "freq": 2.9999999999999997e-05, "amenity": "cafe", "stroke": "orange", "marker-color": "orange", "fill": "orange" }, "geometry": { "type": "Point", "coordinates": [ 39.104958, 22.3082139 ] } },
{ "type": "Feature", "properties": { "name": "IRC Deli", "freq": 2.9999999999999997e-05, "amenity": "cafe", "stroke": "orange", "marker-color": "orange", "fill": "orange" }, "geometry": { "type": "Point", "coordinates": [ 39.0917602, 22.3167503 ] } },
{ "type": "Feature", "properties": { "name": "Baitak Coffee Shop", "freq": 2.9999999999999997e-05, "amenity": "cafe", "stroke": "orange", "marker-color": "orange", "fill": "orange" }, "geometry": { "type": "Point", "coordinates": [ 39.0998918, 22.3097484 ] } }
]
}
